[
  {
    "track": 1,
    "file": "Spur 01.wav",
    "telecom_id": "30",
    "archive_label": "St. Paulus",
    "church_name": "St.-Paulus-Kirche",
    "stadtteil": "Südvorstadt",
    "latitude": 51.032316,
    "longitude": 13.718544,
    "geo_x": -0.39173,
    "geo_y": 0.38416,
    "confidence": "verified",
    "note": "",
    "description": "Track 01 of the 48-track archival recording. St.-Paulus-Kirche, Südvorstadt."
  },
  {
    "track": 2,
    "file": "Spur 02.wav",
    "telecom_id": "28.x",
    "archive_label": "Heiland",
    "church_name": "Heilandskirche",
    "stadtteil": "Cotta",
    "latitude": 51.056829,
    "longitude": 13.681599,
    "geo_x": -0.66239,
    "geo_y": 0.0984,
    "confidence": "verified",
    "note": "",
    "description": "Track 02 of the 48-track archival recording. Heilandskirche, Cotta."
  },
  {
    "track": 3,
    "file": "Spur 03.wav",
    "telecom_id": "51",
    "archive_label": "Coschütz",
    "church_name": "Kapelle Coschütz-Gittersee",
    "stadtteil": "Coschütz",
    "latitude": 51.017801,
    "longitude": 13.700203,
    "geo_x": -0.52609,
    "geo_y": 0.55337,
    "confidence": "approximate",
    "note": "Parish chapel/office address used; exact 1995 bell tower unconfirmed.",
    "description": "Track 03 of the 48-track archival recording. Kapelle Coschütz-Gittersee, Coschütz."
  },
  {
    "track": 4,
    "file": "Spur 04.wav",
    "telecom_id": "1",
    "archive_label": "St. Joseph",
    "church_name": "St.-Josefs-Kirche",
    "stadtteil": "Pieschen",
    "latitude": 51.083698,
    "longitude": 13.720277,
    "geo_x": -0.37903,
    "geo_y": -0.21483,
    "confidence": "verified",
    "note": "",
    "description": "Track 04 of the 48-track archival recording. St.-Josefs-Kirche, Pieschen."
  },
  {
    "track": 5,
    "file": "Spur 05.wav",
    "telecom_id": "25",
    "archive_label": "Gittersee",
    "church_name": "Paul-Gerhardt-Kirche",
    "stadtteil": "Gittersee",
    "latitude": 51.010326,
    "longitude": 13.695987,
    "geo_x": -0.55698,
    "geo_y": 0.64052,
    "confidence": "verified",
    "note": "",
    "description": "Track 05 of the 48-track archival recording. Paul-Gerhardt-Kirche, Gittersee."
  },
  {
    "track": 6,
    "file": "Spur 06.wav",
    "telecom_id": "15",
    "archive_label": "St. Markus",
    "church_name": "Markuskirche",
    "stadtteil": "Pieschen",
    "latitude": 51.077571,
    "longitude": 13.722686,
    "geo_x": -0.36138,
    "geo_y": -0.1434,
    "confidence": "verified",
    "note": "",
    "description": "Track 06 of the 48-track archival recording. Markuskirche, Pieschen."
  },
  {
    "track": 7,
    "file": "Spur 07.wav",
    "telecom_id": "46",
    "archive_label": "Christus Strehlen",
    "church_name": "Christuskirche",
    "stadtteil": "Strehlen",
    "latitude": 51.027195,
    "longitude": 13.765143,
    "geo_x": -0.05034,
    "geo_y": 0.44386,
    "confidence": "verified",
    "note": "",
    "description": "Track 07 of the 48-track archival recording. Christuskirche, Strehlen."
  },
  {
    "track": 8,
    "file": "Spur 08.wav",
    "telecom_id": "9",
    "archive_label": "St. Pauli",
    "church_name": "St.-Pauli-Kirche",
    "stadtteil": "Leipziger Vorstadt",
    "latitude": 51.075209,
    "longitude": 13.748971,
    "geo_x": -0.16882,
    "geo_y": -0.11586,
    "confidence": "verified",
    "note": "",
    "description": "Track 08 of the 48-track archival recording. St.-Pauli-Kirche, Leipziger Vorstadt."
  },
  {
    "track": 9,
    "file": "Spur 09.wav",
    "telecom_id": "3",
    "archive_label": "St. Hubertus",
    "church_name": "St.-Hubertus-Kapelle",
    "stadtteil": "Weißer Hirsch",
    "latitude": 51.06274,
    "longitude": 13.829411,
    "geo_x": 0.42049,
    "geo_y": 0.02949,
    "confidence": "verified",
    "note": "",
    "description": "Track 09 of the 48-track archival recording. St.-Hubertus-Kapelle, Weißer Hirsch."
  },
  {
    "track": 10,
    "file": "Spur 10.wav",
    "telecom_id": "34",
    "archive_label": "Annenkirche",
    "church_name": "Annenkirche",
    "stadtteil": "Wilsdruffer Vorstadt",
    "latitude": 51.048736,
    "longitude": 13.72753,
    "geo_x": -0.3259,
    "geo_y": 0.19275,
    "confidence": "verified",
    "note": "",
    "description": "Track 10 of the 48-track archival recording. Annenkirche, Wilsdruffer Vorstadt."
  },
  {
    "track": 11,
    "file": "Spur 11.wav",
    "telecom_id": "2.x",
    "archive_label": "Franz.-Xaverius",
    "church_name": "St. Franziskus Xaverius",
    "stadtteil": "Innere Neustadt",
    "latitude": 51.061802,
    "longitude": 13.745549,
    "geo_x": -0.19389,
    "geo_y": 0.04043,
    "confidence": "verified",
    "note": "",
    "description": "Track 11 of the 48-track archival recording. St. Franziskus Xaverius, Innere Neustadt."
  },
  {
    "track": 12,
    "file": "Spur 12.wav",
    "telecom_id": "11",
    "archive_label": "St. Michael",
    "church_name": "St.-Michaels-Kirche",
    "stadtteil": "Bühlau",
    "latitude": 51.059366,
    "longitude": 13.856614,
    "geo_x": 0.61978,
    "geo_y": 0.06883,
    "confidence": "verified",
    "note": "",
    "description": "Track 12 of the 48-track archival recording. St.-Michaels-Kirche, Bühlau."
  },
  {
    "track": 13,
    "file": "Spur 13.wav",
    "telecom_id": "16",
    "archive_label": "Apostel",
    "church_name": "Apostelkirche",
    "stadtteil": "Trachau",
    "latitude": 51.092346,
    "longitude": 13.710417,
    "geo_x": -0.45127,
    "geo_y": -0.31564,
    "confidence": "verified",
    "note": "",
    "description": "Track 13 of the 48-track archival recording. Apostelkirche, Trachau."
  },
  {
    "track": 14,
    "file": "Spur 14.wav",
    "telecom_id": "39",
    "archive_label": "Thomas",
    "church_name": "Thomaskirche",
    "stadtteil": "Gruna",
    "latitude": 51.034266,
    "longitude": 13.781973,
    "geo_x": 0.07296,
    "geo_y": 0.36143,
    "confidence": "verified",
    "note": "",
    "description": "Track 14 of the 48-track archival recording. Thomaskirche, Gruna."
  },
  {
    "track": 15,
    "file": "Spur 15.wav",
    "telecom_id": "18",
    "archive_label": "Weißer Hirsch",
    "church_name": "Kirche Weißer Hirsch",
    "stadtteil": "Weißer Hirsch",
    "latitude": 51.06247,
    "longitude": 13.82023,
    "geo_x": 0.35323,
    "geo_y": 0.03264,
    "confidence": "verified",
    "note": "",
    "description": "Track 15 of the 48-track archival recording. Kirche Weißer Hirsch, Weißer Hirsch."
  },
  {
    "track": 16,
    "file": "Spur 16.wav",
    "telecom_id": "13",
    "archive_label": "Christus Klotzsche",
    "church_name": "Christuskirche",
    "stadtteil": "Klotzsche",
    "latitude": 51.116397,
    "longitude": 13.780417,
    "geo_x": 0.06156,
    "geo_y": -0.59602,
    "confidence": "verified",
    "note": "",
    "description": "Track 16 of the 48-track archival recording. Christuskirche, Klotzsche."
  },
  {
    "track": 17,
    "file": "Spur 17.wav",
    "telecom_id": "",
    "archive_label": "MESSEINGANG",
    "church_name": "Messe Dresden — Eingang",
    "stadtteil": "Ostragehege / Friedrichstadt",
    "latitude": 51.068334,
    "longitude": 13.717351,
    "geo_x": -0.40047,
    "geo_y": -0.03572,
    "confidence": "special",
    "note": "Technical relay feed at the 1995 trade-fair entrance, not a church.",
    "description": "Track 17 of the 48-track archival recording. Messe Dresden — Eingang, Ostragehege / Friedrichstadt."
  },
  {
    "track": 18,
    "file": "Spur 18.wav",
    "telecom_id": "41",
    "archive_label": "Leubnitz",
    "church_name": "Kirche Leubnitz-Neuostra",
    "stadtteil": "Leubnitz-Neuostra",
    "latitude": 51.012803,
    "longitude": 13.767371,
    "geo_x": -0.03402,
    "geo_y": 0.61164,
    "confidence": "verified",
    "note": "",
    "description": "Track 18 of the 48-track archival recording. Kirche Leubnitz-Neuostra, Leubnitz-Neuostra."
  },
  {
    "track": 19,
    "file": "Spur 19.wav",
    "telecom_id": "19",
    "archive_label": "Wilschdorf",
    "church_name": "Christophoruskirche",
    "stadtteil": "Wilschdorf",
    "latitude": 51.122169,
    "longitude": 13.722007,
    "geo_x": -0.36636,
    "geo_y": -0.66331,
    "confidence": "verified",
    "note": "",
    "description": "Track 19 of the 48-track archival recording. Christophoruskirche, Wilschdorf."
  },
  {
    "track": 20,
    "file": "Spur 20.wav",
    "telecom_id": "26",
    "archive_label": "Gorbitz",
    "church_name": "Kapelle Gorbitz",
    "stadtteil": "Gorbitz",
    "latitude": 51.039174,
    "longitude": 13.66585,
    "geo_x": -0.77777,
    "geo_y": 0.30422,
    "confidence": "approximate",
    "note": "",
    "description": "Track 20 of the 48-track archival recording. Kapelle Gorbitz, Gorbitz."
  },
  {
    "track": 21,
    "file": "Spur 21.wav",
    "telecom_id": "22",
    "archive_label": "Auferstehung",
    "church_name": "Auferstehungskirche",
    "stadtteil": "Plauen",
    "latitude": 51.028943,
    "longitude": 13.704666,
    "geo_x": -0.4934,
    "geo_y": 0.42349,
    "confidence": "verified",
    "note": "",
    "description": "Track 21 of the 48-track archival recording. Auferstehungskirche, Plauen."
  },
  {
    "track": 22,
    "file": "Spur 22.wav",
    "telecom_id": "28.x",
    "archive_label": "Philippus",
    "church_name": "Philippus-Kirchgemeindezentrum",
    "stadtteil": "Gorbitz",
    "latitude": 51.048787,
    "longitude": 13.672432,
    "geo_x": -0.72955,
    "geo_y": 0.19215,
    "confidence": "verified",
    "note": "",
    "description": "Track 22 of the 48-track archival recording. Philippus-Kirchgemeindezentrum, Gorbitz."
  },
  {
    "track": 23,
    "file": "Spur 23.wav",
    "telecom_id": "40",
    "archive_label": "Himmelfahrt",
    "church_name": "Himmelfahrtskirche",
    "stadtteil": "Leuben",
    "latitude": 51.010977,
    "longitude": 13.82587,
    "geo_x": 0.39455,
    "geo_y": 0.63293,
    "confidence": "verified",
    "note": "",
    "description": "Track 23 of the 48-track archival recording. Himmelfahrtskirche, Leuben."
  },
  {
    "track": 24,
    "file": "Spur 24.wav",
    "telecom_id": "7",
    "archive_label": "Diako",
    "church_name": "Diakonissenhauskirche",
    "stadtteil": "Innere Neustadt",
    "latitude": 51.063876,
    "longitude": 13.762452,
    "geo_x": -0.07006,
    "geo_y": 0.01625,
    "confidence": "verified",
    "note": "",
    "description": "Track 24 of the 48-track archival recording. Diakonissenhauskirche, Innere Neustadt."
  },
  {
    "track": 25,
    "file": "Spur 25.wav",
    "telecom_id": "10",
    "archive_label": "St. Petri",
    "church_name": "St.-Petri-Kirche",
    "stadtteil": "Leipziger Vorstadt",
    "latitude": 51.073008,
    "longitude": 13.736494,
    "geo_x": -0.26022,
    "geo_y": -0.09021,
    "confidence": "verified",
    "note": "",
    "description": "Track 25 of the 48-track archival recording. St.-Petri-Kirche, Leipziger Vorstadt."
  },
  {
    "track": 26,
    "file": "Spur 26.wav",
    "telecom_id": "47",
    "archive_label": "Versöhnung",
    "church_name": "Versöhnungskirche",
    "stadtteil": "Striesen",
    "latitude": 51.042319,
    "longitude": 13.7991,
    "geo_x": 0.19843,
    "geo_y": 0.26755,
    "confidence": "verified",
    "note": "",
    "description": "Track 26 of the 48-track archival recording. Versöhnungskirche, Striesen."
  },
  {
    "track": 27,
    "file": "Spur 27.wav",
    "telecom_id": "17",
    "archive_label": "Weinbergk.",
    "church_name": "Weinbergkirche",
    "stadtteil": "Pillnitz",
    "latitude": 51.011352,
    "longitude": 13.878179,
    "geo_x": 0.77777,
    "geo_y": 0.62855,
    "confidence": "approximate",
    "note": "Two similarly-named churches exist (Pillnitz / Trachenberge); Pillnitz chosen as best match.",
    "description": "Track 27 of the 48-track archival recording. Weinbergkirche, Pillnitz."
  },
  {
    "track": 28,
    "file": "Spur 28.wav",
    "telecom_id": "48",
    "archive_label": "Bethlehem",
    "church_name": "Bethlehemkirche",
    "stadtteil": "Tolkewitz",
    "latitude": 51.03208,
    "longitude": 13.822131,
    "geo_x": 0.36716,
    "geo_y": 0.38692,
    "confidence": "verified",
    "note": "",
    "description": "Track 28 of the 48-track archival recording. Bethlehemkirche, Tolkewitz."
  },
  {
    "track": 29,
    "file": "Spur 29.wav",
    "telecom_id": "6",
    "archive_label": "Mickten",
    "church_name": "Kirche Mickten",
    "stadtteil": "Mickten",
    "latitude": 51.08466,
    "longitude": 13.708824,
    "geo_x": -0.46294,
    "geo_y": -0.22604,
    "confidence": "approximate",
    "note": "Address-level match; specific bell tower unconfirmed.",
    "description": "Track 29 of the 48-track archival recording. Kirche Mickten, Mickten."
  },
  {
    "track": 30,
    "file": "Spur 30.wav",
    "telecom_id": "36",
    "archive_label": "Trinitatis",
    "church_name": "Trinitatiskirche",
    "stadtteil": "Johannstadt",
    "latitude": 51.052614,
    "longitude": 13.771014,
    "geo_x": -0.00733,
    "geo_y": 0.14754,
    "confidence": "verified",
    "note": "",
    "description": "Track 30 of the 48-track archival recording. Trinitatiskirche, Johannstadt."
  },
  {
    "track": 31,
    "file": "Spur 31.wav",
    "telecom_id": "14",
    "archive_label": "Alte Kirche",
    "church_name": "Alte Kirche",
    "stadtteil": "Leuben",
    "latitude": 51.01071,
    "longitude": 13.825967,
    "geo_x": 0.39526,
    "geo_y": 0.63604,
    "confidence": "verified",
    "note": "",
    "description": "Track 31 of the 48-track archival recording. Alte Kirche, Leuben."
  },
  {
    "track": 32,
    "file": "Spur 32.wav",
    "telecom_id": "38",
    "archive_label": "Matthäus",
    "church_name": "Matthäuskirche",
    "stadtteil": "Friedrichstadt",
    "latitude": 51.060349,
    "longitude": 13.716012,
    "geo_x": -0.41028,
    "geo_y": 0.05737,
    "confidence": "verified",
    "note": "",
    "description": "Track 32 of the 48-track archival recording. Matthäuskirche, Friedrichstadt."
  },
  {
    "track": 33,
    "file": "Spur 33.wav",
    "telecom_id": "45",
    "archive_label": "Nazareth",
    "church_name": "Nazarethkirche",
    "stadtteil": "Seidnitz",
    "latitude": 51.027144,
    "longitude": 13.803318,
    "geo_x": 0.22933,
    "geo_y": 0.44446,
    "confidence": "verified",
    "note": "",
    "description": "Track 33 of the 48-track archival recording. Nazarethkirche, Seidnitz."
  },
  {
    "track": 34,
    "file": "Spur 34.wav",
    "telecom_id": "12",
    "archive_label": "Kaditz",
    "church_name": "Emmauskirche",
    "stadtteil": "Kaditz",
    "latitude": 51.083519,
    "longitude": 13.671407,
    "geo_x": -0.73705,
    "geo_y": -0.21274,
    "confidence": "verified",
    "note": "",
    "description": "Track 34 of the 48-track archival recording. Emmauskirche, Kaditz."
  },
  {
    "track": 35,
    "file": "Spur 35.wav",
    "telecom_id": "33",
    "archive_label": "Kreuzkirche",
    "church_name": "Kreuzkirche",
    "stadtteil": "Innere Altstadt",
    "latitude": 51.04876,
    "longitude": 13.73909,
    "geo_x": -0.24121,
    "geo_y": 0.19247,
    "confidence": "verified",
    "note": "",
    "description": "Track 35 of the 48-track archival recording. Kreuzkirche, Innere Altstadt."
  },
  {
    "track": 36,
    "file": "Spur 36.wav",
    "telecom_id": "35",
    "archive_label": "Lucas",
    "church_name": "Lukaskirche",
    "stadtteil": "Südvorstadt",
    "latitude": 51.031618,
    "longitude": 13.734241,
    "geo_x": -0.27673,
    "geo_y": 0.3923,
    "confidence": "verified",
    "note": "",
    "description": "Track 36 of the 48-track archival recording. Lukaskirche, Südvorstadt."
  },
  {
    "track": 37,
    "file": "Spur 37.wav",
    "telecom_id": "4",
    "archive_label": "M.-Luther",
    "church_name": "Martin-Luther-Kirche",
    "stadtteil": "Äußere Neustadt",
    "latitude": 51.064186,
    "longitude": 13.757071,
    "geo_x": -0.10948,
    "geo_y": 0.01264,
    "confidence": "verified",
    "note": "",
    "description": "Track 37 of the 48-track archival recording. Martin-Luther-Kirche, Äußere Neustadt."
  },
  {
    "track": 38,
    "file": "Spur 38.wav",
    "telecom_id": "8.x",
    "archive_label": "Dreikönig",
    "church_name": "Dreikönigskirche",
    "stadtteil": "Innere Neustadt",
    "latitude": 51.060863,
    "longitude": 13.74336,
    "geo_x": -0.20992,
    "geo_y": 0.05138,
    "confidence": "verified",
    "note": "",
    "description": "Track 38 of the 48-track archival recording. Dreikönigskirche, Innere Neustadt."
  },
  {
    "track": 39,
    "file": "Spur 39.wav",
    "telecom_id": "29.x",
    "archive_label": "Hofkirche",
    "church_name": "Kathedrale Ss. Trinitatis (Hofkirche)",
    "stadtteil": "Innere Altstadt",
    "latitude": 51.053427,
    "longitude": 13.73717,
    "geo_x": -0.25527,
    "geo_y": 0.13806,
    "confidence": "verified",
    "note": "",
    "description": "Track 39 of the 48-track archival recording. Kathedrale Ss. Trinitatis (Hofkirche), Innere Altstadt."
  },
  {
    "track": 40,
    "file": "Spur 40.wav",
    "telecom_id": "15.x",
    "archive_label": "Briesnitz",
    "church_name": "Briesnitzer Kirche",
    "stadtteil": "Briesnitz",
    "latitude": 51.06779,
    "longitude": 13.672507,
    "geo_x": -0.729,
    "geo_y": -0.02938,
    "confidence": "verified",
    "note": "",
    "description": "Track 40 of the 48-track archival recording. Briesnitzer Kirche, Briesnitz."
  },
  {
    "track": 41,
    "file": "Spur 41.wav",
    "telecom_id": "31",
    "archive_label": "Herz Jesu",
    "church_name": "Herz-Jesu-Kirche",
    "stadtteil": "Striesen",
    "latitude": 51.04594,
    "longitude": 13.775514,
    "geo_x": 0.02564,
    "geo_y": 0.22534,
    "confidence": "verified",
    "note": "",
    "description": "Track 41 of the 48-track archival recording. Herz-Jesu-Kirche, Striesen."
  },
  {
    "track": 42,
    "file": "Spur 42.wav",
    "telecom_id": "37",
    "archive_label": "Heilig-Geist",
    "church_name": "Heilig-Geist-Kirche",
    "stadtteil": "Blasewitz",
    "latitude": 51.04848,
    "longitude": 13.806993,
    "geo_x": 0.25625,
    "geo_y": 0.19573,
    "confidence": "verified",
    "note": "",
    "description": "Track 42 of the 48-track archival recording. Heilig-Geist-Kirche, Blasewitz."
  },
  {
    "track": 43,
    "file": "Spur 43.wav",
    "telecom_id": "",
    "archive_label": "HfM links",
    "church_name": "Hochschule für Musik (links)",
    "stadtteil": "Wilsdruffer Vorstadt",
    "latitude": 51.053818,
    "longitude": 13.724624,
    "geo_x": -0.34718,
    "geo_y": 0.1335,
    "confidence": "special",
    "note": "Music academy feed, left channel — not a church.",
    "description": "Track 43 of the 48-track archival recording. Hochschule für Musik (links), Wilsdruffer Vorstadt."
  },
  {
    "track": 44,
    "file": "Spur 44.wav",
    "telecom_id": "",
    "archive_label": "HfM rechts",
    "church_name": "Hochschule für Musik (rechts)",
    "stadtteil": "Wilsdruffer Vorstadt",
    "latitude": 51.053818,
    "longitude": 13.725224,
    "geo_x": -0.34279,
    "geo_y": 0.1335,
    "confidence": "special",
    "note": "Music academy feed, right channel — not a church.",
    "description": "Track 44 of the 48-track archival recording. Hochschule für Musik (rechts), Wilsdruffer Vorstadt."
  },
  {
    "track": 45,
    "file": "Spur 45.wav",
    "telecom_id": "2.x",
    "archive_label": "Franz.-Xaverius \"C\"",
    "church_name": "St. Franziskus Xaverius (Kanal C)",
    "stadtteil": "Innere Neustadt",
    "latitude": 51.062102,
    "longitude": 13.745849,
    "geo_x": -0.19169,
    "geo_y": 0.03693,
    "confidence": "verified",
    "note": "Alternate technical relay channel of track 11's church.",
    "description": "Track 45 of the 48-track archival recording. St. Franziskus Xaverius (Kanal C), Innere Neustadt."
  },
  {
    "track": 46,
    "file": "Spur 46.wav",
    "telecom_id": "32",
    "archive_label": "Petrus Canisius \"C\"",
    "church_name": "St. Petrus Canisius (Schlosskapelle Pillnitz)",
    "stadtteil": "Pillnitz",
    "latitude": 51.008371,
    "longitude": 13.871902,
    "geo_x": 0.73178,
    "geo_y": 0.66331,
    "confidence": "approximate",
    "note": "Services held in the Pillnitz Schlosskapelle per parish records.",
    "description": "Track 46 of the 48-track archival recording. St. Petrus Canisius (Schlosskapelle Pillnitz), Pillnitz."
  },
  {
    "track": 47,
    "file": "Spur 47.wav",
    "telecom_id": "43",
    "archive_label": "Loschwitz \"C\"",
    "church_name": "Loschwitzer Kirche",
    "stadtteil": "Loschwitz",
    "latitude": 51.053053,
    "longitude": 13.817341,
    "geo_x": 0.33206,
    "geo_y": 0.14242,
    "confidence": "verified",
    "note": "",
    "description": "Track 47 of the 48-track archival recording. Loschwitzer Kirche, Loschwitz."
  },
  {
    "track": 48,
    "file": "Spur 48.wav",
    "telecom_id": "50",
    "archive_label": "DZM \"C\"",
    "church_name": "(unconfirmed — reference/relay channel)",
    "stadtteil": null,
    "latitude": 51.052002,
    "longitude": 13.753763,
    "geo_x": -0.13371,
    "geo_y": 0.15467,
    "confidence": "unconfirmed",
    "note": "Not identified as a specific church despite archival research; likely a technical reference or synchronization channel. Placed at the composition's geographic centroid rather than a fabricated location.",
    "description": "Track 48 of the 48-track archival recording. (unconfirmed — reference/relay channel)."
  }
]